[
  {
    "name": "Wawel Castle",
    "city": "Kraków",
    "address": "Wawel 5, 31-001 Kraków, Poland",
    "latitude": 50.054,
    "longitude": 19.9354,
    "image_url": "https://upload.wikimedia.org/wikipedia/commons/thumb/2/22/Exterior_of_the_St._Stanislaus_Church_and_Wawel_Castle_seen_across_the_Vistula_River%2C_Krak%C3%B3w.jpg/1280px-Exterior_of_the_St._Stanislaus_Church_and_Wawel_Castle_seen_across_the_Vistula_River%2C_Krak%C3%B3w.jpg"
  },
  {
    "name": "St. Mary's Basilica",
    "city": "Kraków",
    "address": "Plac Mariacki 5, 31-042 Kraków, Poland",
    "latitude": 50.0616,
    "longitude": 19.9394,
    "image_url": "https://upload.wikimedia.org/wikipedia/commons/thumb/c/c9/Cracow_St_Mary_VI.jpg/1280px-Cracow_St_Mary_VI.jpg"
  },
  {
    "name": "Cloth Hall",
    "city": "Kraków",
    "address": "Rynek Główny 1/3, 31-042 Kraków, Poland",
    "latitude": 50.0617,
    "longitude": 19.9373,
    "image_url": "https://upload.wikimedia.org/wikipedia/commons/thumb/b/b9/Krakow_Buildings_18.jpg/1280px-Krakow_Buildings_18.jpg"
  },
  {
    "name": "Wawel Cathedral",
    "city": "Kraków",
    "address": "Wawel 3, 31-001 Kraków, Poland",
    "latitude": 50.0543,
    "longitude": 19.9352,
    "image_url": "https://upload.wikimedia.org/wikipedia/commons/a/a5/Krak%C3%B3w%2C_Bazylika_archikatedralna_%C5%9Bw._Stanis%C5%82awa_i_%C5%9Bw._Wac%C5%82awa_-_fotopolska.eu_%28163663%29.jpg"
  },
  {
    "name": "Collegium Maius",
    "city": "Kraków",
    "address": "Jagiellońska 15, 31-010 Kraków, Poland",
    "latitude": 50.0613,
    "longitude": 19.933,
    "image_url": "https://upload.wikimedia.org/wikipedia/commons/thumb/b/b4/2025%2C_ul._Go%C5%82%C4%99bia_24%2C_Krak%C3%B3w%2C_Collegium_Maius_Uniwersytetu_Jagiello%C5%84skiego%2C_11.jpg/1280px-2025%2C_ul._Go%C5%82%C4%99bia_24%2C_Krak%C3%B3w%2C_Collegium_Maius_Uniwersytetu_Jagiello%C5%84skiego%2C_11.jpg"
  },
  {
    "name": "Barbican of Kraków",
    "city": "Kraków",
    "address": "Basztowa, 30-547 Kraków, Poland",
    "latitude": 50.0654,
    "longitude": 19.9416,
    "image_url": "https://upload.wikimedia.org/wikipedia/commons/thumb/0/0c/2015_Krak%C3%B3w%2C_Barbakan_02.jpg/1280px-2015_Krak%C3%B3w%2C_Barbakan_02.jpg"
  },
  {
    "name": "St. Peter and Paul Church",
    "city": "Kraków",
    "address": "Grodzka 52A, 31-044 Kraków, Poland",
    "latitude": 50.0573,
    "longitude": 19.9383,
    "image_url": "https://upload.wikimedia.org/wikipedia/commons/thumb/8/8b/Organ%2C_Church_of_St_Peter_and_St_Paul%2C_East_Harling.jpg/1280px-Organ%2C_Church_of_St_Peter_and_St_Paul%2C_East_Harling.jpg"
  },
  {
    "name": "St. Andrew's Church, Kraków",
    "city": "Kraków",
    "address": "Grodzka 56, 31-044 Kraków, Poland",
    "latitude": 50.057,
    "longitude": 19.9381,
    "image_url": "https://upload.wikimedia.org/wikipedia/commons/thumb/1/16/Krakow_Buildings_03.jpg/1280px-Krakow_Buildings_03.jpg"
  },
  {
    "name": "Town Hall Tower, Kraków",
    "city": "Kraków",
    "address": "Rynek Główny 1, 31-042 Kraków, Poland",
    "latitude": 50.0615,
    "longitude": 19.9365,
    "image_url": "https://upload.wikimedia.org/wikipedia/commons/thumb/4/4e/Krakow_2024_104_Old_Town_Hall_Tower_View.jpg/1280px-Krakow_2024_104_Old_Town_Hall_Tower_View.jpg"
  },
  {
    "name": "Juliusz Słowacki Theatre",
    "city": "Kraków",
    "address": "Plac Świętego Ducha 1, 31-023 Kraków, Poland",
    "latitude": 50.064,
    "longitude": 19.9408,
    "image_url": "https://upload.wikimedia.org/wikipedia/commons/thumb/f/f7/Slowacki_Theatre_04.jpg/1280px-Slowacki_Theatre_04.jpg"
  },
  {
    "name": "National Museum in Kraków",
    "city": "Kraków",
    "address": "al. 3 Maja 1, 30-062 Kraków, Poland",
    "latitude": 50.0603,
    "longitude": 19.9236,
    "image_url": "https://upload.wikimedia.org/wikipedia/commons/thumb/a/a8/Horadnia%2C_Padzam%C4%8Da%2C_Bernardynski._%D0%93%D0%BE%D1%80%D0%B0%D0%B4%D0%BD%D1%8F%2C_%D0%9F%D0%B0%D0%B4%D0%B7%D0%B0%D0%BC%D1%87%D0%B0%2C_%D0%91%D1%8D%D1%80%D0%BD%D0%B0%D1%80%D0%B4%D1%8B%D0%BD%D1%81%D0%BA%D1%96_%28N._Orda%2C_1861-69%29.jpg/1280px-Horadnia%2C_Padzam%C4%8Da%2C_Bernardynski._%D0%93%D0%BE%D1%80%D0%B0%D0%B4%D0%BD%D1%8F%2C_%D0%9F%D0%B0%D0%B4%D0%B7%D0%B0%D0%BC%D1%87%D0%B0%2C_%D0%91%D1%8D%D1%80%D0%BD%D0%B0%D1%80%D0%B4%D1%8B%D0%BD%D1%81%D0%BA%D1%96_%28N._Orda%2C_1861-69%29.jpg"
  },
  {
    "name": "Kraków Philharmonic",
    "city": "Kraków",
    "address": "Zwierzyniecka 1, 31-103 Kraków, Poland",
    "latitude": 50.056,
    "longitude": 19.931,
    "image_url": "https://upload.wikimedia.org/wikipedia/commons/thumb/a/aa/Krakow_Philharmonic_Hall%2C_1_Zwierzyniecka_street%2C_Krakow%2C_Poland.jpg/1280px-Krakow_Philharmonic_Hall%2C_1_Zwierzyniecka_street%2C_Krakow%2C_Poland.jpg"
  },
  {
    "name": "Palace of Art, Kraków",
    "city": "Kraków",
    "address": "Plac Szczepański 4, 31-011 Kraków, Poland",
    "latitude": 50.0632,
    "longitude": 19.9328,
    "image_url": "https://upload.wikimedia.org/wikipedia/commons/thumb/9/95/Krakow_Palac_Sztuki_2025.jpg/1280px-Krakow_Palac_Sztuki_2025.jpg"
  },
  {
    "name": "Globe House",
    "city": "Kraków",
    "address": "Długa 1, 31-147 Kraków, Poland",
    "latitude": 50.0647,
    "longitude": 19.9418,
    "image_url": "https://upload.wikimedia.org/wikipedia/commons/thumb/e/e2/British_American_Tobacco_Headquarters.jpg/1280px-British_American_Tobacco_Headquarters.jpg"
  },
  {
    "name": "Wyspiański Pavilion",
    "city": "Kraków",
    "address": "Plac Wszystkich Świętych 2, 31-004 Kraków, Poland",
    "latitude": 50.0587,
    "longitude": 19.9337,
    "image_url": "https://upload.wikimedia.org/wikipedia/commons/thumb/5/59/Ostrowski_%26_Wyspia%C5%84ski_-_Saint_Stanislas_-_Krak%C3%B3w.png/1280px-Ostrowski_%26_Wyspia%C5%84ski_-_Saint_Stanislas_-_Krak%C3%B3w.png"
  },
  {
    "name": "Old Synagogue, Kraków",
    "city": "Kraków",
    "address": "Szeroka 24, 31-053 Kraków, Poland",
    "latitude": 50.0514,
    "longitude": 19.9459,
    "image_url": "https://upload.wikimedia.org/wikipedia/commons/thumb/f/f3/2015_Krak%C3%B3w%2C_Synagoga_Stara_02.jpg/1280px-2015_Krak%C3%B3w%2C_Synagoga_Stara_02.jpg"
  },
  {
    "name": "ICE Kraków Congress Centre",
    "city": "Kraków",
    "address": "Marii Konopnickiej 17, 30-302 Kraków, Poland",
    "latitude": 50.0478,
    "longitude": 19.9337,
    "image_url": "https://upload.wikimedia.org/wikipedia/commons/thumb/6/6b/ICE_Congress_Centre_and_Church_of_St._Stanislaus_Kostka_in_Krak%C3%B3w%2C_2016.jpg/1280px-ICE_Congress_Centre_and_Church_of_St._Stanislaus_Kostka_in_Krak%C3%B3w%2C_2016.jpg"
  }
]